{
"type": "FeatureCollection",
"crs": { "type": "name", "properties": { "name": "urn:ogc:def:crs:OGC:1.3:CRS84" } },
                                                                                
"features": [
{ "type": "Feature", "properties": { "shop": "convenience", "name": "Mithu Cold Store", "highway": null, "manhole": null, "repair": null, "amenity": null, "place": null, "religion": null, "historic": null, "atm": null, "addr_stree": null, "office": null, "name_ne": null, "name_en": null }, "geometry": { "type": "Point", "coordinates": [ 85.3407628, 27.7119333 ] } },
{ "type": "Feature", "properties": { "shop": "stationery", "name": "HipHop Communication and Stationery", "highway": null, "manhole": null, "repair": null, "amenity": null, "place": null, "religion": null, "historic": null, "atm": null, "addr_stree": null, "office": null, "name_ne": null, "name_en": null }, "geometry": { "type": "Point", "coordinates": [ 85.3393769, 27.7080702 ] } },
{ "type": "Feature", "properties": { "shop": "clothes", "name": "kantipur uniform", "highway": null, "manhole": null, "repair": null, "amenity": null, "place": null, "religion": null, "historic": null, "atm": null, "addr_stree": null, "office": null, "name_ne": null, "name_en": null }, "geometry": { "type": "Point", "coordinates": [ 85.3445816, 27.7133283 ] } },
{ "type": "Feature", "properties": { "shop": null, "name": "Logo Girls Hostel", "highway": null, "manhole": null, "repair": null, "amenity": null, "place": null, "religion": null, "historic": null, "atm": null, "addr_stree": null, "office": null, "name_ne": null, "name_en": null }, "geometry": { "type": "Point", "coordinates": [ 85.3377808, 27.7082842 ] } },
{ "type": "Feature", "properties": { "shop": "books", "name": "Pashupati Books and Stationery", "highway": null, "manhole": null, "repair": null, "amenity": null, "place": null, "religion": null, "historic": null, "atm": null, "addr_stree": null, "office": null, "name_ne": null, "name_en": null }, "geometry": { "type": "Point", "coordinates": [ 85.3445378, 27.7134707 ] } },
{ "type": "Feature", "properties": { "shop": null, "name": "Roadrunner Bike Point", "highway": null, "manhole": null, "repair": "yes", "amenity": null, "place": null, "religion": null, "historic": null, "atm": null, "addr_stree": null, "office": null, "name_ne": null, "name_en": null }, "geometry": { "type": "Point", "coordinates": [ 85.3473632, 27.7147131 ] } },
{ "type": "Feature", "properties": { "shop": "stationery", "name": "Sabina Stationery center", "highway": null, "manhole": null, "repair": null, "amenity": null, "place": null, "religion": null, "historic": null, "atm": null, "addr_stree": null, "office": null, "name_ne": null, "name_en": null }, "geometry": { "type": "Point", "coordinates": [ 85.3377127, 27.7114814 ] } },
{ "type": "Feature", "properties": { "shop": null, "name": "Pingala Bihar", "highway": null, "manhole": null, "repair": null, "amenity": "place_of_worship", "place": null, "religion": null, "historic": null, "atm": null, "addr_stree": null, "office": null, "name_ne": null, "name_en": null }, "geometry": { "type": "Point", "coordinates": [ 85.3427682, 27.7146083 ] } },
{ "type": "Feature", "properties": { "shop": null, "name": "Biraj Dental Hospital and Research Center", "highway": null, "manhole": null, "repair": null, "amenity": "hospital", "place": null, "religion": null, "historic": null, "atm": null, "addr_stree": null, "office": null, "name_ne": null, "name_en": null }, "geometry": { "type": "Point", "coordinates": [ 85.3457733, 27.7168522 ] } },
{ "type": "Feature", "properties": { "shop": null, "name": "Baidhya nath bhandari ayurved dham", "highway": null, "manhole": null, "repair": null, "amenity": "pharmacy", "place": null, "religion": null, "historic": null, "atm": null, "addr_stree": null, "office": null, "name_ne": null, "name_en": null }, "geometry": { "type": "Point", "coordinates": [ 85.3383499, 27.7105149 ] } },
{ "type": "Feature", "properties": { "shop": null, "name": "Mitrapark", "highway": null, "manhole": null, "repair": null, "amenity": null, "place": "locality", "religion": null, "historic": null, "atm": null, "addr_stree": null, "office": null, "name_ne": null, "name_en": null }, "geometry": { "type": "Point", "coordinates": [ 85.3450409, 27.71336 ] } },
{ "type": "Feature", "properties": { "shop": null, "name": "Bulbulley", "highway": null, "manhole": null, "repair": null, "amenity": null, "place": "neighbourhood", "religion": null, "historic": null, "atm": null, "addr_stree": null, "office": null, "name_ne": null, "name_en": null }, "geometry": { "type": "Point", "coordinates": [ 85.3432821, 27.7164842 ] } },
{ "type": "Feature", "properties": { "shop": "beauty", "name": "Om sai Beauty Parlour", "highway": null, "manhole": null, "repair": null, "amenity": null, "place": null, "religion": null, "historic": null, "atm": null, "addr_stree": null, "office": null, "name_ne": null, "name_en": null }, "geometry": { "type": "Point", "coordinates": [ 85.338204, 27.7081364 ] } },
{ "type": "Feature", "properties": { "shop": null, "name": "Shanti Goreto", "highway": null, "manhole": null, "repair": null, "amenity": null, "place": "neighbourhood", "religion": null, "historic": null, "atm": null, "addr_stree": null, "office": null, "name_ne": null, "name_en": null }, "geometry": { "type": "Point", "coordinates": [ 85.3488774, 27.7205979 ] } },
{ "type": "Feature", "properties": { "shop": null, "name": "Mitra Arts", "highway": null, "manhole": null, "repair": null, "amenity": "arts_centre", "place": null, "religion": null, "historic": null, "atm": null, "addr_stree": null, "office": null, "name_ne": null, "name_en": null }, "geometry": { "type": "Point", "coordinates": [ 85.3447867, 27.7138509 ] } },
{ "type": "Feature", "properties": { "shop": null, "name": "Dental Clinic", "highway": null, "manhole": null, "repair": null, "amenity": "clinic", "place": null, "religion": null, "historic": null, "atm": null, "addr_stree": null, "office": null, "name_ne": null, "name_en": null }, "geometry": { "type": "Point", "coordinates": [ 85.3453705, 27.717054 ] } },
{ "type": "Feature", "properties": { "shop": null, "name": "Siddhartha Buddha Dental Clinic", "highway": null, "manhole": null, "repair": null, "amenity": "clinic", "place": null, "religion": null, "historic": null, "atm": null, "addr_stree": null, "office": null, "name_ne": null, "name_en": null }, "geometry": { "type": "Point", "coordinates": [ 85.3459057, 27.7170063 ] } },
{ "type": "Feature", "properties": { "shop": "hairdresser", "name": "Angelic Beauty Parlour and Cosmetic Shop", "highway": null, "manhole": null, "repair": null, "amenity": null, "place": null, "religion": null, "historic": null, "atm": null, "addr_stree": null, "office": null, "name_ne": null, "name_en": null }, "geometry": { "type": "Point", "coordinates": [ 85.3391661, 27.7122193 ] } },
{ "type": "Feature", "properties": { "shop": "convenience", "name": "My Choice Shopping", "highway": null, "manhole": null, "repair": null, "amenity": null, "place": null, "religion": null, "historic": null, "atm": null, "addr_stree": null, "office": null, "name_ne": null, "name_en": null }, "geometry": { "type": "Point", "coordinates": [ 85.3430136, 27.7142574 ] } },
{ "type": "Feature", "properties": { "shop": null, "name": "Motorway Sifal Chiya Pasal", "highway": null, "manhole": null, "repair": null, "amenity": "cafe", "place": null, "religion": null, "historic": null, "atm": null, "addr_stree": null, "office": null, "name_ne": null, "name_en": null }, "geometry": { "type": "Point", "coordinates": [ 85.3398418, 27.7095784 ] } },
{ "type": "Feature", "properties": { "shop": null, "name": "upreti niwas", "highway": null, "manhole": null, "repair": null, "amenity": null, "place": null, "religion": null, "historic": null, "atm": null, "addr_stree": null, "office": null, "name_ne": null, "name_en": null }, "geometry": { "type": "Point", "coordinates": [ 85.3375882, 27.7100931 ] } },
{ "type": "Feature", "properties": { "shop": null, "name": "Sagar Coke and Coffee Shop", "highway": null, "manhole": null, "repair": null, "amenity": "cafe", "place": null, "religion": null, "historic": null, "atm": null, "addr_stree": null, "office": null, "name_ne": null, "name_en": null }, "geometry": { "type": "Point", "coordinates": [ 85.344512, 27.7133195 ] } },
{ "type": "Feature", "properties": { "shop": "cosmetics", "name": "Cosmetics and Gift Shop", "highway": null, "manhole": null, "repair": null, "amenity": null, "place": null, "religion": null, "historic": null, "atm": null, "addr_stree": null, "office": null, "name_ne": null, "name_en": null }, "geometry": { "type": "Point", "coordinates": [ 85.3454969, 27.7145539 ] } },
{ "type": "Feature", "properties": { "shop": null, "name": "NDEP Development Bank", "highway": null, "manhole": null, "repair": null, "amenity": "bank", "place": null, "religion": null, "historic": null, "atm": "no", "addr_stree": null, "office": null, "name_ne": null, "name_en": null }, "geometry": { "type": "Point", "coordinates": [ 85.3462332, 27.7169638 ] } },
{ "type": "Feature", "properties": { "shop": null, "name": "Flex Print", "highway": null, "manhole": null, "repair": null, "amenity": "arts_centre", "place": null, "religion": null, "historic": null, "atm": null, "addr_stree": null, "office": null, "name_ne": null, "name_en": null }, "geometry": { "type": "Point", "coordinates": [ 85.3452757, 27.7143562 ] } },
{ "type": "Feature", "properties": { "shop": null, "name": "Sundaram Pharmacy", "highway": null, "manhole": null, "repair": null, "amenity": "pharmacy", "place": null, "religion": null, "historic": null, "atm": null, "addr_stree": null, "office": null, "name_ne": null, "name_en": null }, "geometry": { "type": "Point", "coordinates": [ 85.3465601, 27.7182896 ] } },
{ "type": "Feature", "properties": { "shop": null, "name": "Shankhar Metal Workshop", "highway": null, "manhole": null, "repair": null, "amenity": null, "place": null, "religion": null, "historic": null, "atm": null, "addr_stree": "Bulbulley Marg-1;Paneru Galli", "office": null, "name_ne": null, "name_en": null }, "geometry": { "type": "Point", "coordinates": [ 85.3418094, 27.7155058 ] } },
{ "type": "Feature", "properties": { "shop": "travel_agency", "name": "My trip to Nepal", "highway": null, "manhole": null, "repair": null, "amenity": null, "place": null, "religion": null, "historic": null, "atm": null, "addr_stree": null, "office": null, "name_ne": null, "name_en": null }, "geometry": { "type": "Point", "coordinates": [ 85.340303, 27.7081402 ] } },
{ "type": "Feature", "properties": { "shop": null, "name": "JayaBageshwari Stop", "highway": null, "manhole": null, "repair": null, "amenity": null, "place": null, "religion": null, "historic": null, "atm": null, "addr_stree": null, "office": null, "name_ne": null, "name_en": null }, "geometry": { "type": "Point", "coordinates": [ 85.3449897, 27.7120078 ] } },
{ "type": "Feature", "properties": { "shop": "stationery", "name": "Stationery", "highway": null, "manhole": null, "repair": null, "amenity": null, "place": null, "religion": null, "historic": null, "atm": null, "addr_stree": null, "office": null, "name_ne": null, "name_en": null }, "geometry": { "type": "Point", "coordinates": [ 85.3375833, 27.7082552 ] } },
{ "type": "Feature", "properties": { "shop": null, "name": "Sunrise Bank", "highway": null, "manhole": null, "repair": null, "amenity": "bank", "place": null, "religion": null, "historic": null, "atm": "yes", "addr_stree": null, "office": null, "name_ne": null, "name_en": null }, "geometry": { "type": "Point", "coordinates": [ 85.3468287, 27.7221795 ] } },
{ "type": "Feature", "properties": { "shop": null, "name": "HVM College", "highway": null, "manhole": null, "repair": null, "amenity": "school", "place": null, "religion": null, "historic": null, "atm": null, "addr_stree": null, "office": null, "name_ne": null, "name_en": null }, "geometry": { "type": "Point", "coordinates": [ 85.3387702, 27.7097138 ] } },
{ "type": "Feature", "properties": { "shop": null, "name": "Cross Road Cafe", "highway": null, "manhole": null, "repair": null, "amenity": "cafe", "place": null, "religion": null, "historic": null, "atm": null, "addr_stree": null, "office": null, "name_ne": null, "name_en": null }, "geometry": { "type": "Point", "coordinates": [ 85.3395086, 27.708259 ] } },
{ "type": "Feature", "properties": { "shop": null, "name": "Kumari sthan", "highway": null, "manhole": null, "repair": null, "amenity": "place_of_worship", "place": null, "religion": "hindu", "historic": null, "atm": null, "addr_stree": null, "office": null, "name_ne": null, "name_en": null }, "geometry": { "type": "Point", "coordinates": [ 85.346592, 27.7133444 ] } },
{ "type": "Feature", "properties": { "shop": null, "name": "Buddha Dental Hospital", "highway": null, "manhole": null, "repair": null, "amenity": "hospital", "place": null, "religion": null, "historic": null, "atm": null, "addr_stree": null, "office": null, "name_ne": null, "name_en": null }, "geometry": { "type": "Point", "coordinates": [ 85.3464317, 27.7179837 ] } },
{ "type": "Feature", "properties": { "shop": "travel_agency", "name": "Dana Travels And Tours Pvt Ltd", "highway": null, "manhole": null, "repair": null, "amenity": null, "place": null, "religion": null, "historic": null, "atm": null, "addr_stree": null, "office": null, "name_ne": null, "name_en": null }, "geometry": { "type": "Point", "coordinates": [ 85.3401078, 27.708128 ] } },
{ "type": "Feature", "properties": { "shop": null, "name": "Shree Kumari Mandir", "highway": null, "manhole": null, "repair": null, "amenity": "place_of_worship", "place": null, "religion": "hindu", "historic": null, "atm": null, "addr_stree": null, "office": null, "name_ne": null, "name_en": null }, "geometry": { "type": "Point", "coordinates": [ 85.349376, 27.7166076 ] } },
{ "type": "Feature", "properties": { "shop": null, "name": "Emergency home for Street children", "highway": null, "manhole": null, "repair": null, "amenity": null, "place": null, "religion": null, "historic": null, "atm": null, "addr_stree": null, "office": "ngo", "name_ne": null, "name_en": null }, "geometry": { "type": "Point", "coordinates": [ 85.3406147, 27.7096293 ] } },
{ "type": "Feature", "properties": { "shop": null, "name": "Parking Space", "highway": null, "manhole": null, "repair": null, "amenity": "parking_space", "place": null, "religion": null, "historic": null, "atm": null, "addr_stree": null, "office": null, "name_ne": null, "name_en": null }, "geometry": { "type": "Point", "coordinates": [ 85.345475, 27.7144447 ] } },
{ "type": "Feature", "properties": { "shop": "jewelry", "name": "Real Classic jewellers", "highway": null, "manhole": null, "repair": null, "amenity": null, "place": null, "religion": null, "historic": null, "atm": null, "addr_stree": null, "office": null, "name_ne": null, "name_en": null }, "geometry": { "type": "Point", "coordinates": [ 85.3470625, 27.7171877 ] } },
{ "type": "Feature", "properties": { "shop": null, "name": "International Job link", "highway": null, "manhole": null, "repair": null, "amenity": null, "place": null, "religion": null, "historic": null, "atm": null, "addr_stree": null, "office": "employment_agency", "name_ne": null, "name_en": null }, "geometry": { "type": "Point", "coordinates": [ 85.3398852, 27.7084474 ] } },
{ "type": "Feature", "properties": { "shop": null, "name": "Ward Ofiice Parking", "highway": null, "manhole": null, "repair": null, "amenity": "parking_space", "place": null, "religion": null, "historic": null, "atm": null, "addr_stree": null, "office": null, "name_ne": null, "name_en": null }, "geometry": { "type": "Point", "coordinates": [ 85.3453167, 27.7134433 ] } },
{ "type": "Feature", "properties": { "shop": null, "name": "Devi Mandir", "highway": null, "manhole": null, "repair": null, "amenity": null, "place": null, "religion": null, "historic": "monument", "atm": null, "addr_stree": null, "office": null, "name_ne": null, "name_en": null }, "geometry": { "type": "Point", "coordinates": [ 85.340802, 27.7119958 ] } },
{ "type": "Feature", "properties": { "shop": "travel_agency", "name": "World Travel and Investment Pvt Ltd", "highway": null, "manhole": null, "repair": null, "amenity": null, "place": null, "religion": null, "historic": null, "atm": null, "addr_stree": null, "office": null, "name_ne": null, "name_en": null }, "geometry": { "type": "Point", "coordinates": [ 85.3403029, 27.7081842 ] } },
{ "type": "Feature", "properties": { "shop": null, "name": "radhe krishna boys hostel", "highway": null, "manhole": null, "repair": null, "amenity": null, "place": null, "religion": null, "historic": null, "atm": null, "addr_stree": null, "office": null, "name_ne": null, "name_en": null }, "geometry": { "type": "Point", "coordinates": [ 85.3376149, 27.7100441 ] } },
{ "type": "Feature", "properties": { "shop": null, "name": "Paneku Tole", "highway": null, "manhole": null, "repair": null, "amenity": null, "place": "neighbourhood", "religion": null, "historic": null, "atm": null, "addr_stree": null, "office": null, "name_ne": null, "name_en": null }, "geometry": { "type": "Point", "coordinates": [ 85.3393597, 27.7091262 ] } },
{ "type": "Feature", "properties": { "shop": null, "name": "Cross Road Cafe", "highway": null, "manhole": null, "repair": null, "amenity": "cafe", "place": null, "religion": null, "historic": null, "atm": null, "addr_stree": null, "office": null, "name_ne": null, "name_en": null }, "geometry": { "type": "Point", "coordinates": [ 85.3395574, 27.7080891 ] } },
{ "type": "Feature", "properties": { "shop": "travel_agency", "name": "Advice travel and tours", "highway": null, "manhole": null, "repair": null, "amenity": null, "place": null, "religion": null, "historic": null, "atm": null, "addr_stree": null, "office": null, "name_ne": null, "name_en": null }, "geometry": { "type": "Point", "coordinates": [ 85.3394809, 27.7082135 ] } },
{ "type": "Feature", "properties": { "shop": null, "name": "Samaj Dental Pharmacy", "highway": null, "manhole": null, "repair": null, "amenity": "pharmacy", "place": null, "religion": null, "historic": null, "atm": null, "addr_stree": null, "office": null, "name_ne": null, "name_en": null }, "geometry": { "type": "Point", "coordinates": [ 85.3463441, 27.7173908 ] } },
{ "type": "Feature", "properties": { "shop": null, "name": "S.K Band Baja", "highway": null, "manhole": null, "repair": null, "amenity": "arts_centre", "place": null, "religion": null, "historic": null, "atm": null, "addr_stree": null, "office": null, "name_ne": null, "name_en": null }, "geometry": { "type": "Point", "coordinates": [ 85.3448271, 27.7139675 ] } },
{ "type": "Feature", "properties": { "shop": null, "name": "Lumbini Enterprise", "highway": null, "manhole": null, "repair": null, "amenity": null, "place": null, "religion": null, "historic": null, "atm": null, "addr_stree": null, "office": "company", "name_ne": null, "name_en": null }, "geometry": { "type": "Point", "coordinates": [ 85.3457964, 27.7141326 ] } },
{ "type": "Feature", "properties": { "shop": "electronics", "name": "CB Electronics", "highway": null, "manhole": null, "repair": null, "amenity": null, "place": null, "religion": null, "historic": null, "atm": null, "addr_stree": null, "office": null, "name_ne": null, "name_en": null }, "geometry": { "type": "Point", "coordinates": [ 85.3449689, 27.7168216 ] } },
{ "type": "Feature", "properties": { "shop": "convenience", "name": "sri nath collection", "highway": null, "manhole": null, "repair": null, "amenity": null, "place": null, "religion": null, "historic": null, "atm": null, "addr_stree": null, "office": null, "name_ne": null, "name_en": null }, "geometry": { "type": "Point", "coordinates": [ 85.347235, 27.7172763 ] } },
{ "type": "Feature", "properties": { "shop": "computer", "name": "Computer Junction And Solution", "highway": null, "manhole": null, "repair": null, "amenity": null, "place": null, "religion": null, "historic": null, "atm": null, "addr_stree": null, "office": null, "name_ne": null, "name_en": null }, "geometry": { "type": "Point", "coordinates": [ 85.3379601, 27.7109406 ] } },
{ "type": "Feature", "properties": { "shop": null, "name": "Kanchan Pharmacy", "highway": null, "manhole": null, "repair": null, "amenity": "pharmacy", "place": null, "religion": null, "historic": null, "atm": null, "addr_stree": null, "office": null, "name_ne": null, "name_en": null }, "geometry": { "type": "Point", "coordinates": [ 85.3453957, 27.7168291 ] } },
{ "type": "Feature", "properties": { "shop": "trade", "name": "New Sujal Suppliers", "highway": null, "manhole": null, "repair": null, "amenity": null, "place": null, "religion": null, "historic": null, "atm": null, "addr_stree": null, "office": null, "name_ne": null, "name_en": null }, "geometry": { "type": "Point", "coordinates": [ 85.3395416, 27.7080894 ] } },
{ "type": "Feature", "properties": { "shop": null, "name": "Lumbini Tandoori Restaruant", "highway": null, "manhole": null, "repair": null, "amenity": "restaurant", "place": null, "religion": null, "historic": null, "atm": null, "addr_stree": null, "office": null, "name_ne": null, "name_en": null }, "geometry": { "type": "Point", "coordinates": [ 85.3397907, 27.7080756 ] } },
{ "type": "Feature", "properties": { "shop": null, "name": "Aradhana Oil Stores", "highway": null, "manhole": null, "repair": null, "amenity": "fuel", "place": null, "religion": null, "historic": null, "atm": null, "addr_stree": null, "office": null, "name_ne": null, "name_en": null }, "geometry": { "type": "Point", "coordinates": [ 85.3419069, 27.7129287 ] } },
{ "type": "Feature", "properties": { "shop": null, "name": "Purbeli Hotel", "highway": null, "manhole": null, "repair": null, "amenity": "restaurant", "place": null, "religion": null, "historic": null, "atm": null, "addr_stree": null, "office": null, "name_ne": null, "name_en": null }, "geometry": { "type": "Point", "coordinates": [ 85.3447275, 27.7133195 ] } },
{ "type": "Feature", "properties": { "shop": null, "name": "Pipal Bot", "highway": null, "manhole": null, "repair": null, "amenity": null, "place": null, "religion": null, "historic": null, "atm": null, "addr_stree": null, "office": null, "name_ne": null, "name_en": null }, "geometry": { "type": "Point", "coordinates": [ 85.3382706, 27.7113683 ] } },
{ "type": "Feature", "properties": { "shop": null, "name": "Muskan Resturant Bar", "highway": null, "manhole": null, "repair": null, "amenity": "restaurant", "place": null, "religion": null, "historic": null, "atm": null, "addr_stree": null, "office": null, "name_ne": null, "name_en": null }, "geometry": { "type": "Point", "coordinates": [ 85.3380403, 27.7117079 ] } },
{ "type": "Feature", "properties": { "shop": null, "name": "Pashupati Bhandareshore", "highway": null, "manhole": null, "repair": null, "amenity": null, "place": null, "religion": null, "historic": "monument", "atm": null, "addr_stree": null, "office": null, "name_ne": null, "name_en": null }, "geometry": { "type": "Point", "coordinates": [ 85.3388131, 27.7122848 ] } },
{ "type": "Feature", "properties": { "shop": null, "name": "Prime Health Care Center", "highway": null, "manhole": null, "repair": null, "amenity": "clinic", "place": null, "religion": null, "historic": null, "atm": null, "addr_stree": null, "office": null, "name_ne": null, "name_en": null }, "geometry": { "type": "Point", "coordinates": [ 85.3456062, 27.720915 ] } },
{ "type": "Feature", "properties": { "shop": "variety_store", "name": "Dhirghayu Cold Store", "highway": null, "manhole": null, "repair": null, "amenity": null, "place": null, "religion": null, "historic": null, "atm": null, "addr_stree": null, "office": null, "name_ne": null, "name_en": null }, "geometry": { "type": "Point", "coordinates": [ 85.3453753, 27.7144319 ] } },
{ "type": "Feature", "properties": { "shop": null, "name": "Lyceum Model School", "highway": null, "manhole": null, "repair": null, "amenity": "school", "place": null, "religion": null, "historic": null, "atm": null, "addr_stree": null, "office": null, "name_ne": null, "name_en": null }, "geometry": { "type": "Point", "coordinates": [ 85.3405445, 27.714924 ] } },
{ "type": "Feature", "properties": { "shop": null, "name": "Kumarigal", "highway": null, "manhole": null, "repair": null, "amenity": null, "place": "neighbourhood", "religion": null, "historic": null, "atm": null, "addr_stree": null, "office": null, "name_ne": null, "name_en": null }, "geometry": { "type": "Point", "coordinates": [ 85.3521565, 27.715312 ] } },
{ "type": "Feature", "properties": { "shop": null, "name": "Ncell Service Centre", "highway": null, "manhole": null, "repair": null, "amenity": null, "place": null, "religion": null, "historic": null, "atm": null, "addr_stree": null, "office": "telecommunication", "name_ne": null, "name_en": null }, "geometry": { "type": "Point", "coordinates": [ 85.3457965, 27.7142968 ] } },
{ "type": "Feature", "properties": { "shop": null, "name": "S.S Sound and Light Hire Centre", "highway": null, "manhole": null, "repair": null, "amenity": null, "place": null, "religion": null, "historic": null, "atm": null, "addr_stree": null, "office": "employment_agency", "name_ne": null, "name_en": null }, "geometry": { "type": "Point", "coordinates": [ 85.3385869, 27.7081283 ] } },
{ "type": "Feature", "properties": { "shop": null, "name": "Hyatt Regency", "highway": null, "manhole": null, "repair": null, "amenity": null, "place": null, "religion": null, "historic": null, "atm": null, "addr_stree": null, "office": null, "name_ne": null, "name_en": null }, "geometry": { "type": "Point", "coordinates": [ 85.3541091, 27.7194001 ] } },
{ "type": "Feature", "properties": { "shop": null, "name": "Sifal Taxi Stand", "highway": null, "manhole": null, "repair": null, "amenity": "taxi", "place": null, "religion": null, "historic": null, "atm": null, "addr_stree": null, "office": null, "name_ne": null, "name_en": null }, "geometry": { "type": "Point", "coordinates": [ 85.3407802, 27.7119011 ] } },
{ "type": "Feature", "properties": { "shop": "beauty", "name": "Sunrize Beauty Parlor", "highway": null, "manhole": null, "repair": null, "amenity": null, "place": null, "religion": null, "historic": null, "atm": null, "addr_stree": null, "office": null, "name_ne": null, "name_en": null }, "geometry": { "type": "Point", "coordinates": [ 85.3374864, 27.7103944 ] } },
{ "type": "Feature", "properties": { "shop": null, "name": "Badminton Court", "highway": null, "manhole": null, "repair": null, "amenity": null, "place": null, "religion": null, "historic": null, "atm": null, "addr_stree": null, "office": null, "name_ne": null, "name_en": null }, "geometry": { "type": "Point", "coordinates": [ 85.3381918, 27.7091751 ] } },
{ "type": "Feature", "properties": { "shop": "furniture", "name": "Furniture Udhyog", "highway": null, "manhole": null, "repair": null, "amenity": null, "place": null, "religion": null, "historic": null, "atm": null, "addr_stree": null, "office": null, "name_ne": null, "name_en": null }, "geometry": { "type": "Point", "coordinates": [ 85.3385597, 27.7137795 ] } },
{ "type": "Feature", "properties": { "shop": "tailor", "name": "Manakamana Tailoring", "highway": null, "manhole": null, "repair": null, "amenity": null, "place": null, "religion": null, "historic": null, "atm": null, "addr_stree": null, "office": null, "name_ne": null, "name_en": null }, "geometry": { "type": "Point", "coordinates": [ 85.3444871, 27.7133667 ] } },
{ "type": "Feature", "properties": { "shop": "motorcycle", "name": "Sharma Motorcycle Workshop", "highway": null, "manhole": null, "repair": null, "amenity": null, "place": null, "religion": null, "historic": null, "atm": null, "addr_stree": null, "office": null, "name_ne": null, "name_en": null }, "geometry": { "type": "Point", "coordinates": [ 85.3401639, 27.712281 ] } },
{ "type": "Feature", "properties": { "shop": null, "name": "Newari Khaja Ghar", "highway": null, "manhole": null, "repair": null, "amenity": "restaurant", "place": null, "religion": null, "historic": null, "atm": null, "addr_stree": null, "office": null, "name_ne": null, "name_en": null }, "geometry": { "type": "Point", "coordinates": [ 85.3403474, 27.7121232 ] } },
{ "type": "Feature", "properties": { "shop": null, "name": "Shipal Peepal Bot", "highway": null, "manhole": null, "repair": null, "amenity": null, "place": null, "religion": null, "historic": null, "atm": null, "addr_stree": null, "office": null, "name_ne": null, "name_en": null }, "geometry": { "type": "Point", "coordinates": [ 85.3409258, 27.7119409 ] } },
{ "type": "Feature", "properties": { "shop": "travel_agency", "name": "Trip land travel  and tours", "highway": null, "manhole": null, "repair": null, "amenity": null, "place": null, "religion": null, "historic": null, "atm": null, "addr_stree": null, "office": null, "name_ne": null, "name_en": null }, "geometry": { "type": "Point", "coordinates": [ 85.3392809, 27.7080823 ] } },
{ "type": "Feature", "properties": { "shop": "convenience", "name": "DDC franchise shop", "highway": null, "manhole": null, "repair": null, "amenity": null, "place": null, "religion": null, "historic": null, "atm": null, "addr_stree": null, "office": null, "name_ne": null, "name_en": null }, "geometry": { "type": "Point", "coordinates": [ 85.3442495, 27.7162402 ] } },
{ "type": "Feature", "properties": { "shop": null, "name": "Innovative College of Health Science Pvt. Ltd.", "highway": null, "manhole": null, "repair": null, "amenity": "school", "place": null, "religion": null, "historic": null, "atm": null, "addr_stree": null, "office": null, "name_ne": null, "name_en": null }, "geometry": { "type": "Point", "coordinates": [ 85.340551, 27.7112735 ] } },
{ "type": "Feature", "properties": { "shop": null, "name": "convinent Store", "highway": null, "manhole": null, "repair": null, "amenity": null, "place": null, "religion": null, "historic": null, "atm": null, "addr_stree": null, "office": null, "name_ne": null, "name_en": null }, "geometry": { "type": "Point", "coordinates": [ 85.349617, 27.7149001 ] } },
{ "type": "Feature", "properties": { "shop": null, "name": "Rastriya yatayat upovokta Sangh Nepal", "highway": null, "manhole": null, "repair": null, "amenity": null, "place": null, "religion": null, "historic": null, "atm": null, "addr_stree": null, "office": null, "name_ne": null, "name_en": null }, "geometry": { "type": "Point", "coordinates": [ 85.345305, 27.7143925 ] } },
{ "type": "Feature", "properties": { "shop": null, "name": "Aagrim Mahila Co-operative", "highway": null, "manhole": null, "repair": null, "amenity": "bank", "place": null, "religion": null, "historic": null, "atm": "no", "addr_stree": null, "office": "cooperative", "name_ne": null, "name_en": null }, "geometry": { "type": "Point", "coordinates": [ 85.3452792, 27.7143334 ] } },
{ "type": "Feature", "properties": { "shop": null, "name": "Chabahil Ganeshsthan", "highway": null, "manhole": null, "repair": null, "amenity": "place_of_worship", "place": null, "religion": "hindu", "historic": null, "atm": null, "addr_stree": null, "office": null, "name_ne": null, "name_en": null }, "geometry": { "type": "Point", "coordinates": [ 85.344661, 27.7166246 ] } },
{ "type": "Feature", "properties": { "shop": "electronics", "name": "New kuwar suppliers", "highway": null, "manhole": null, "repair": null, "amenity": null, "place": null, "religion": null, "historic": null, "atm": null, "addr_stree": null, "office": null, "name_ne": null, "name_en": null }, "geometry": { "type": "Point", "coordinates": [ 85.3399731, 27.7098034 ] } },
{ "type": "Feature", "properties": { "shop": "furniture", "name": "Maharajan Stores and Gift Shop", "highway": null, "manhole": null, "repair": null, "amenity": null, "place": null, "religion": null, "historic": null, "atm": null, "addr_stree": null, "office": null, "name_ne": null, "name_en": null }, "geometry": { "type": "Point", "coordinates": [ 85.3382378, 27.7081182 ] } },
{ "type": "Feature", "properties": { "shop": null, "name": "Gopi Krishna Nagar", "highway": null, "manhole": null, "repair": null, "amenity": null, "place": "neighbourhood", "religion": null, "historic": null, "atm": null, "addr_stree": null, "office": null, "name_ne": null, "name_en": null }, "geometry": { "type": "Point", "coordinates": [ 85.3470429, 27.7224144 ] } },
{ "type": "Feature", "properties": { "shop": "variety_store", "name": "Shree Muse Ganesh Kirana Store", "highway": null, "manhole": null, "repair": null, "amenity": null, "place": null, "religion": null, "historic": null, "atm": null, "addr_stree": null, "office": null, "name_ne": null, "name_en": null }, "geometry": { "type": "Point", "coordinates": [ 85.3446791, 27.7136421 ] } },
{ "type": "Feature", "properties": { "shop": null, "name": "Chabahil", "highway": null, "manhole": null, "repair": null, "amenity": null, "place": null, "religion": null, "historic": null, "atm": null, "addr_stree": null, "office": null, "name_ne": "चाबाहील", "name_en": null }, "geometry": { "type": "Point", "coordinates": [ 85.3464838, 27.7167563 ] } },
{ "type": "Feature", "properties": { "shop": null, "name": "Maa Durga Pharmacy", "highway": null, "manhole": null, "repair": null, "amenity": "pharmacy", "place": null, "religion": null, "historic": null, "atm": null, "addr_stree": null, "office": null, "name_ne": null, "name_en": null }, "geometry": { "type": "Point", "coordinates": [ 85.3464872, 27.7187293 ] } },
{ "type": "Feature", "properties": { "shop": "jewelry", "name": "surya mukhi jewelers", "highway": null, "manhole": null, "repair": null, "amenity": null, "place": null, "religion": null, "historic": null, "atm": null, "addr_stree": null, "office": null, "name_ne": null, "name_en": null }, "geometry": { "type": "Point", "coordinates": [ 85.346983, 27.7171301 ] } },
{ "type": "Feature", "properties": { "shop": "boutique", "name": "Niisha Ladies and Gents Tailors", "highway": null, "manhole": null, "repair": null, "amenity": null, "place": null, "religion": null, "historic": null, "atm": null, "addr_stree": null, "office": null, "name_ne": null, "name_en": null }, "geometry": { "type": "Point", "coordinates": [ 85.3383523, 27.7106325 ] } },
{ "type": "Feature", "properties": { "shop": null, "name": "Street Lamp", "highway": "street_lamp", "manhole": null, "repair": null, "amenity": null, "place": null, "religion": null, "historic": null, "atm": null, "addr_stree": null, "office": null, "name_ne": null, "name_en": null }, "geometry": { "type": "Point", "coordinates": [ 85.3482616, 27.714917 ] } },
{ "type": "Feature", "properties": { "shop": "variety_store", "name": "Prakash Bhandar", "highway": null, "manhole": null, "repair": null, "amenity": null, "place": null, "religion": null, "historic": null, "atm": null, "addr_stree": null, "office": null, "name_ne": null, "name_en": null }, "geometry": { "type": "Point", "coordinates": [ 85.3398096, 27.7094097 ] } },
{ "type": "Feature", "properties": { "shop": null, "name": "7.9 food blog", "highway": null, "manhole": null, "repair": null, "amenity": "restaurant", "place": null, "religion": null, "historic": null, "atm": null, "addr_stree": null, "office": null, "name_ne": null, "name_en": null }, "geometry": { "type": "Point", "coordinates": [ 85.3450689, 27.7168489 ] } },
{ "type": "Feature", "properties": { "shop": "furniture", "name": "Narayan Wood Carving Center", "highway": null, "manhole": null, "repair": null, "amenity": null, "place": null, "religion": null, "historic": null, "atm": null, "addr_stree": null, "office": null, "name_ne": null, "name_en": null }, "geometry": { "type": "Point", "coordinates": [ 85.3393831, 27.7122726 ] } },
{ "type": "Feature", "properties": { "shop": "variety_store", "name": "Palpali Cold Store", "highway": null, "manhole": null, "repair": null, "amenity": null, "place": null, "religion": null, "historic": null, "atm": null, "addr_stree": null, "office": null, "name_ne": null, "name_en": null }, "geometry": { "type": "Point", "coordinates": [ 85.3453668, 27.7144254 ] } },
{ "type": "Feature", "properties": { "shop": null, "name": "Digita Photo House", "highway": null, "manhole": null, "repair": null, "amenity": null, "place": null, "religion": null, "historic": null, "atm": null, "addr_stree": null, "office": null, "name_ne": null, "name_en": null }, "geometry": { "type": "Point", "coordinates": [ 85.3392355, 27.708107 ] } },
{ "type": "Feature", "properties": { "shop": "electronics", "name": "classic electronics", "highway": null, "manhole": null, "repair": null, "amenity": null, "place": null, "religion": null, "historic": null, "atm": null, "addr_stree": null, "office": null, "name_ne": null, "name_en": null }, "geometry": { "type": "Point", "coordinates": [ 85.3470457, 27.7171661 ] } },
{ "type": "Feature", "properties": { "shop": "books", "name": "Sangalo Book Store", "highway": null, "manhole": null, "repair": null, "amenity": null, "place": null, "religion": null, "historic": null, "atm": null, "addr_stree": null, "office": null, "name_ne": null, "name_en": null }, "geometry": { "type": "Point", "coordinates": [ 85.3446578, 27.7133195 ] } },
{ "type": "Feature", "properties": { "shop": "greengrocer", "name": "Fruit Store", "highway": null, "manhole": null, "repair": null, "amenity": null, "place": null, "religion": null, "historic": null, "atm": null, "addr_stree": null, "office": null, "name_ne": null, "name_en": null }, "geometry": { "type": "Point", "coordinates": [ 85.3380299, 27.7081298 ] } },
{ "type": "Feature", "properties": { "shop": "hairdresser", "name": "Santosh Hair Dresser And Salon", "highway": null, "manhole": null, "repair": null, "amenity": null, "place": null, "religion": null, "historic": null, "atm": null, "addr_stree": null, "office": null, "name_ne": null, "name_en": null }, "geometry": { "type": "Point", "coordinates": [ 85.3377188, 27.7114001 ] } },
{ "type": "Feature", "properties": { "shop": null, "name": "Pratima jati Nagarik Samaj Nepal", "highway": null, "manhole": null, "repair": null, "amenity": null, "place": null, "religion": null, "historic": null, "atm": null, "addr_stree": null, "office": null, "name_ne": null, "name_en": null }, "geometry": { "type": "Point", "coordinates": [ 85.345305, 27.7143655 ] } },
{ "type": "Feature", "properties": { "shop": null, "name": "Aanaupacharik shikcha tatha deeva chisu shaher khendra", "highway": null, "manhole": null, "repair": null, "amenity": null, "place": null, "religion": null, "historic": null, "atm": null, "addr_stree": null, "office": null, "name_ne": null, "name_en": null }, "geometry": { "type": "Point", "coordinates": [ 85.3487716, 27.7148512 ] } },
{ "type": "Feature", "properties": { "shop": "car_parts", "name": "Valley Motorcycle Enterprise", "highway": null, "manhole": null, "repair": null, "amenity": null, "place": null, "religion": null, "historic": null, "atm": null, "addr_stree": null, "office": null, "name_ne": null, "name_en": null }, "geometry": { "type": "Point", "coordinates": [ 85.339268, 27.7080911 ] } },
{ "type": "Feature", "properties": { "shop": null, "name": "Gupta and Gupta Sweet Shop", "highway": null, "manhole": null, "repair": null, "amenity": "restaurant", "place": null, "religion": null, "historic": null, "atm": null, "addr_stree": null, "office": null, "name_ne": null, "name_en": null }, "geometry": { "type": "Point", "coordinates": [ 85.3464506, 27.7163804 ] } },
{ "type": "Feature", "properties": { "shop": "car", "name": "Castrol Auto City Pvt. Ltd.", "highway": null, "manhole": null, "repair": null, "amenity": null, "place": null, "religion": null, "historic": null, "atm": null, "addr_stree": null, "office": null, "name_ne": null, "name_en": null }, "geometry": { "type": "Point", "coordinates": [ 85.3382552, 27.7128851 ] } },
{ "type": "Feature", "properties": { "shop": "butcher", "name": "Meat Center", "highway": null, "manhole": null, "repair": null, "amenity": null, "place": null, "religion": null, "historic": null, "atm": null, "addr_stree": null, "office": null, "name_ne": null, "name_en": null }, "geometry": { "type": "Point", "coordinates": [ 85.3398411, 27.7096801 ] } },
{ "type": "Feature", "properties": { "shop": "electronics", "name": "Shankar electronics", "highway": null, "manhole": null, "repair": null, "amenity": null, "place": null, "religion": null, "historic": null, "atm": null, "addr_stree": null, "office": null, "name_ne": null, "name_en": null }, "geometry": { "type": "Point", "coordinates": [ 85.3475286, 27.7174711 ] } },
{ "type": "Feature", "properties": { "shop": "tailor", "name": "The Great Fashion", "highway": null, "manhole": null, "repair": null, "amenity": null, "place": null, "religion": null, "historic": null, "atm": null, "addr_stree": null, "office": null, "name_ne": null, "name_en": null }, "geometry": { "type": "Point", "coordinates": [ 85.3382926, 27.7118388 ] } },
{ "type": "Feature", "properties": { "shop": null, "name": "Paneku tole Mandir", "highway": null, "manhole": null, "repair": null, "amenity": "place_of_worship", "place": null, "religion": "hindu", "historic": null, "atm": null, "addr_stree": null, "office": null, "name_ne": null, "name_en": null }, "geometry": { "type": "Point", "coordinates": [ 85.3390972, 27.7092052 ] } },
{ "type": "Feature", "properties": { "shop": null, "name": "Maiju Bahal", "highway": null, "manhole": null, "repair": null, "amenity": null, "place": "neighbourhood", "religion": null, "historic": null, "atm": null, "addr_stree": null, "office": null, "name_ne": null, "name_en": null }, "geometry": { "type": "Point", "coordinates": [ 85.3555357, 27.7182614 ] } },
{ "type": "Feature", "properties": { "shop": null, "name": "Medi Noor Pharmacy", "highway": null, "manhole": null, "repair": null, "amenity": "pharmacy", "place": null, "religion": null, "historic": null, "atm": null, "addr_stree": null, "office": null, "name_ne": null, "name_en": null }, "geometry": { "type": "Point", "coordinates": [ 85.3465601, 27.7183162 ] } },
{ "type": "Feature", "properties": { "shop": "seafood", "name": "Fish House", "highway": null, "manhole": null, "repair": null, "amenity": null, "place": null, "religion": null, "historic": null, "atm": null, "addr_stree": null, "office": null, "name_ne": null, "name_en": null }, "geometry": { "type": "Point", "coordinates": [ 85.340092, 27.712223 ] } },
{ "type": "Feature", "properties": { "shop": "books", "name": "Trisul Publication", "highway": null, "manhole": null, "repair": null, "amenity": null, "place": null, "religion": null, "historic": null, "atm": null, "addr_stree": null, "office": null, "name_ne": null, "name_en": null }, "geometry": { "type": "Point", "coordinates": [ 85.3471809, 27.7148748 ] } },
{ "type": "Feature", "properties": { "shop": null, "name": "Gautam Vojanalaya", "highway": null, "manhole": null, "repair": null, "amenity": "fast_food", "place": null, "religion": null, "historic": null, "atm": null, "addr_stree": null, "office": null, "name_ne": null, "name_en": null }, "geometry": { "type": "Point", "coordinates": [ 85.3379018, 27.7116619 ] } },
{ "type": "Feature", "properties": { "shop": "motorcycle", "name": "Shiva Workshop", "highway": null, "manhole": null, "repair": null, "amenity": null, "place": null, "religion": null, "historic": null, "atm": null, "addr_stree": null, "office": null, "name_ne": null, "name_en": null }, "geometry": { "type": "Point", "coordinates": [ 85.3457949, 27.7140971 ] } },
{ "type": "Feature", "properties": { "shop": null, "name": "Mandiva Hair Center", "highway": null, "manhole": null, "repair": null, "amenity": null, "place": null, "religion": null, "historic": null, "atm": null, "addr_stree": null, "office": null, "name_ne": null, "name_en": null }, "geometry": { "type": "Point", "coordinates": [ 85.3399622, 27.7091078 ] } },
{ "type": "Feature", "properties": { "shop": null, "name": "Himalaya Vidyalaya Mandir", "highway": null, "manhole": null, "repair": null, "amenity": "school", "place": null, "religion": null, "historic": null, "atm": null, "addr_stree": null, "office": null, "name_ne": null, "name_en": null }, "geometry": { "type": "Point", "coordinates": [ 85.3387877, 27.7102704 ] } },
{ "type": "Feature", "properties": { "shop": "car_repair", "name": "Suzuki service centre", "highway": null, "manhole": null, "repair": null, "amenity": null, "place": null, "religion": null, "historic": null, "atm": null, "addr_stree": null, "office": null, "name_ne": null, "name_en": null }, "geometry": { "type": "Point", "coordinates": [ 85.3480884, 27.713266 ] } },
{ "type": "Feature", "properties": { "shop": null, "name": "oasis consultancy", "highway": null, "manhole": null, "repair": null, "amenity": null, "place": null, "religion": null, "historic": null, "atm": null, "addr_stree": null, "office": "consultancy", "name_ne": null, "name_en": null }, "geometry": { "type": "Point", "coordinates": [ 85.344938, 27.7168135 ] } },
{ "type": "Feature", "properties": { "shop": "butcher", "name": "S and S Meat Shop", "highway": null, "manhole": null, "repair": null, "amenity": null, "place": null, "religion": null, "historic": null, "atm": null, "addr_stree": null, "office": null, "name_ne": null, "name_en": null }, "geometry": { "type": "Point", "coordinates": [ 85.3399433, 27.7080772 ] } },
{ "type": "Feature", "properties": { "shop": "welding", "name": "Siddha aluminium fabrication and interior", "highway": null, "manhole": null, "repair": null, "amenity": null, "place": null, "religion": null, "historic": null, "atm": null, "addr_stree": null, "office": null, "name_ne": null, "name_en": null }, "geometry": { "type": "Point", "coordinates": [ 85.3468281, 27.7127239 ] } },
{ "type": "Feature", "properties": { "shop": null, "name": "Bridge Side Cafe", "highway": null, "manhole": null, "repair": null, "amenity": "cafe", "place": null, "religion": null, "historic": null, "atm": null, "addr_stree": null, "office": null, "name_ne": null, "name_en": null }, "geometry": { "type": "Point", "coordinates": [ 85.3376065, 27.7081611 ] } },
{ "type": "Feature", "properties": { "shop": null, "name": "shubham banquet", "highway": null, "manhole": null, "repair": null, "amenity": null, "place": null, "religion": null, "historic": null, "atm": null, "addr_stree": null, "office": null, "name_ne": null, "name_en": null }, "geometry": { "type": "Point", "coordinates": [ 85.3387494, 27.715043 ] } },
{ "type": "Feature", "properties": { "shop": null, "name": "Maiju Bahal", "highway": null, "manhole": null, "repair": null, "amenity": null, "place": "neighbourhood", "religion": null, "historic": null, "atm": null, "addr_stree": null, "office": null, "name_ne": null, "name_en": null }, "geometry": { "type": "Point", "coordinates": [ 85.3492626, 27.7166028 ] } },
{ "type": "Feature", "properties": { "shop": null, "name": "Siphal Pharmacy", "highway": null, "manhole": null, "repair": null, "amenity": "pharmacy", "place": null, "religion": null, "historic": null, "atm": null, "addr_stree": null, "office": null, "name_ne": null, "name_en": null }, "geometry": { "type": "Point", "coordinates": [ 85.3406126, 27.7121179 ] } },
{ "type": "Feature", "properties": { "shop": null, "name": "Charu Medical Store", "highway": null, "manhole": null, "repair": null, "amenity": "pharmacy", "place": null, "religion": null, "historic": null, "atm": null, "addr_stree": null, "office": null, "name_ne": null, "name_en": null }, "geometry": { "type": "Point", "coordinates": [ 85.3455211, 27.7168827 ] } },
{ "type": "Feature", "properties": { "shop": "convenience", "name": "Kirana Pasal", "highway": null, "manhole": null, "repair": null, "amenity": null, "place": null, "religion": null, "historic": null, "atm": null, "addr_stree": null, "office": null, "name_ne": null, "name_en": null }, "geometry": { "type": "Point", "coordinates": [ 85.3381765, 27.7093268 ] } },
{ "type": "Feature", "properties": { "shop": null, "name": "peepal bot", "highway": null, "manhole": null, "repair": null, "amenity": null, "place": null, "religion": null, "historic": "wayside_shrine", "atm": null, "addr_stree": null, "office": null, "name_ne": null, "name_en": null }, "geometry": { "type": "Point", "coordinates": [ 85.3463729, 27.7160991 ] } },
{ "type": "Feature", "properties": { "shop": null, "name": "Dumping Site", "highway": null, "manhole": null, "repair": null, "amenity": null, "place": null, "religion": null, "historic": null, "atm": null, "addr_stree": null, "office": null, "name_ne": null, "name_en": null }, "geometry": { "type": "Point", "coordinates": [ 85.3370525, 27.7081994 ] } },
{ "type": "Feature", "properties": { "shop": "variety_store", "name": "Suresh Kirana", "highway": null, "manhole": null, "repair": null, "amenity": null, "place": null, "religion": null, "historic": null, "atm": null, "addr_stree": null, "office": null, "name_ne": null, "name_en": null }, "geometry": { "type": "Point", "coordinates": [ 85.3399136, 27.7092355 ] } },
{ "type": "Feature", "properties": { "shop": null, "name": "Nawa Buddha Dental Care", "highway": null, "manhole": null, "repair": null, "amenity": "clinic", "place": null, "religion": null, "historic": null, "atm": null, "addr_stree": null, "office": null, "name_ne": null, "name_en": null }, "geometry": { "type": "Point", "coordinates": [ 85.3496422, 27.7188826 ] } },
{ "type": "Feature", "properties": { "shop": "video_games", "name": "Jhakas Cyber", "highway": null, "manhole": null, "repair": null, "amenity": null, "place": null, "religion": null, "historic": null, "atm": null, "addr_stree": null, "office": null, "name_ne": null, "name_en": null }, "geometry": { "type": "Point", "coordinates": [ 85.3387817, 27.713242 ] } },
{ "type": "Feature", "properties": { "shop": null, "name": "Metropolitan Police Post", "highway": null, "manhole": null, "repair": null, "amenity": "police", "place": null, "religion": null, "historic": null, "atm": null, "addr_stree": null, "office": null, "name_ne": null, "name_en": null }, "geometry": { "type": "Point", "coordinates": [ 85.3388588, 27.7121975 ] } },
{ "type": "Feature", "properties": { "shop": null, "name": "Ratopul Stop", "highway": null, "manhole": null, "repair": null, "amenity": null, "place": null, "religion": null, "historic": null, "atm": null, "addr_stree": null, "office": null, "name_ne": null, "name_en": null }, "geometry": { "type": "Point", "coordinates": [ 85.3374756, 27.7080731 ] } },
{ "type": "Feature", "properties": { "shop": "car_parts", "name": "Auto works and services", "highway": null, "manhole": null, "repair": null, "amenity": null, "place": null, "religion": null, "historic": null, "atm": null, "addr_stree": null, "office": null, "name_ne": null, "name_en": null }, "geometry": { "type": "Point", "coordinates": [ 85.3374246, 27.7084976 ] } },
{ "type": "Feature", "properties": { "shop": null, "name": "Paradise International Academy", "highway": null, "manhole": null, "repair": null, "amenity": "school", "place": null, "religion": null, "historic": null, "atm": null, "addr_stree": null, "office": null, "name_ne": null, "name_en": null }, "geometry": { "type": "Point", "coordinates": [ 85.339511, 27.7136009 ] } },
{ "type": "Feature", "properties": { "shop": null, "name": "NJYCN Fitness Center", "highway": null, "manhole": null, "repair": null, "amenity": null, "place": null, "religion": null, "historic": null, "atm": null, "addr_stree": null, "office": null, "name_ne": null, "name_en": null }, "geometry": { "type": "Point", "coordinates": [ 85.3408835, 27.7119882 ] } },
{ "type": "Feature", "properties": { "shop": "motorcycle", "name": "R.G. Workshop", "highway": null, "manhole": null, "repair": null, "amenity": null, "place": null, "religion": null, "historic": null, "atm": null, "addr_stree": null, "office": null, "name_ne": null, "name_en": null }, "geometry": { "type": "Point", "coordinates": [ 85.3384287, 27.7133763 ] } },
{ "type": "Feature", "properties": { "shop": null, "name": "typical Newari Restaurant", "highway": null, "manhole": null, "repair": null, "amenity": "restaurant", "place": null, "religion": null, "historic": null, "atm": null, "addr_stree": null, "office": null, "name_ne": null, "name_en": null }, "geometry": { "type": "Point", "coordinates": [ 85.3466057, 27.7157025 ] } },
{ "type": "Feature", "properties": { "shop": null, "name": "Children's Diagnosis Center", "highway": null, "manhole": null, "repair": null, "amenity": "clinic", "place": null, "religion": null, "historic": null, "atm": null, "addr_stree": null, "office": null, "name_ne": null, "name_en": null }, "geometry": { "type": "Point", "coordinates": [ 85.3461845, 27.7169627 ] } },
{ "type": "Feature", "properties": { "shop": null, "name": "Kutu Bahal", "highway": null, "manhole": null, "repair": null, "amenity": null, "place": "neighbourhood", "religion": null, "historic": null, "atm": null, "addr_stree": null, "office": null, "name_ne": null, "name_en": null }, "geometry": { "type": "Point", "coordinates": [ 85.341099, 27.7149104 ] } },
{ "type": "Feature", "properties": { "shop": null, "name": "Shree Bal Byabasayi Kendra Secondary School", "highway": null, "manhole": null, "repair": null, "amenity": "school", "place": null, "religion": null, "historic": null, "atm": null, "addr_stree": null, "office": null, "name_ne": null, "name_en": null }, "geometry": { "type": "Point", "coordinates": [ 85.3406025, 27.7109927 ] } },
{ "type": "Feature", "properties": { "shop": "electronics", "name": "Shree Panchakumari Mai Electric Repairing Workshop", "highway": null, "manhole": null, "repair": null, "amenity": null, "place": null, "religion": null, "historic": null, "atm": null, "addr_stree": null, "office": null, "name_ne": null, "name_en": null }, "geometry": { "type": "Point", "coordinates": [ 85.3386457, 27.71198 ] } },
{ "type": "Feature", "properties": { "shop": null, "name": "Gopi Krishna Stop", "highway": null, "manhole": null, "repair": null, "amenity": null, "place": null, "religion": null, "historic": null, "atm": null, "addr_stree": null, "office": null, "name_ne": null, "name_en": null }, "geometry": { "type": "Point", "coordinates": [ 85.3460992, 27.7206294 ] } },
{ "type": "Feature", "properties": { "shop": null, "name": "Gauri saving and loan cooperative", "highway": null, "manhole": null, "repair": null, "amenity": null, "place": null, "religion": null, "historic": null, "atm": null, "addr_stree": null, "office": null, "name_ne": null, "name_en": null }, "geometry": { "type": "Point", "coordinates": [ 85.3487736, 27.7148693 ] } },
{ "type": "Feature", "properties": { "shop": "Tertiary", "name": "Territory Travels", "highway": null, "manhole": null, "repair": null, "amenity": null, "place": null, "religion": null, "historic": null, "atm": null, "addr_stree": null, "office": null, "name_ne": null, "name_en": null }, "geometry": { "type": "Point", "coordinates": [ 85.3401077, 27.7087244 ] } },
{ "type": "Feature", "properties": { "shop": null, "name": "Gangahiti", "highway": null, "manhole": null, "repair": null, "amenity": null, "place": "neighbourhood", "religion": null, "historic": null, "atm": null, "addr_stree": null, "office": null, "name_ne": null, "name_en": null }, "geometry": { "type": "Point", "coordinates": [ 85.3433292, 27.7201081 ] } },
{ "type": "Feature", "properties": { "shop": "beauty", "name": "Bandana", "highway": null, "manhole": null, "repair": null, "amenity": null, "place": null, "religion": null, "historic": null, "atm": null, "addr_stree": null, "office": null, "name_ne": null, "name_en": null }, "geometry": { "type": "Point", "coordinates": [ 85.3416201, 27.7158095 ] } },
{ "type": "Feature", "properties": { "shop": null, "name": "Chhimeki Restaurant", "highway": null, "manhole": null, "repair": null, "amenity": "restaurant", "place": null, "religion": null, "historic": null, "atm": null, "addr_stree": null, "office": null, "name_ne": null, "name_en": null }, "geometry": { "type": "Point", "coordinates": [ 85.3463669, 27.7175846 ] } },
{ "type": "Feature", "properties": { "shop": null, "name": "Birendra Pustakalaya", "highway": null, "manhole": null, "repair": null, "amenity": "library", "place": null, "religion": null, "historic": null, "atm": null, "addr_stree": null, "office": null, "name_ne": null, "name_en": null }, "geometry": { "type": "Point", "coordinates": [ 85.3430288, 27.7145133 ] } },
{ "type": "Feature", "properties": { "shop": null, "name": "RK Cafe", "highway": null, "manhole": null, "repair": null, "amenity": "cafe", "place": null, "religion": null, "historic": null, "atm": null, "addr_stree": null, "office": null, "name_ne": null, "name_en": null }, "geometry": { "type": "Point", "coordinates": [ 85.3396627, 27.7081079 ] } },
{ "type": "Feature", "properties": { "shop": "trade", "name": "triveni Traders", "highway": null, "manhole": null, "repair": null, "amenity": null, "place": null, "religion": null, "historic": null, "atm": null, "addr_stree": null, "office": null, "name_ne": null, "name_en": null }, "geometry": { "type": "Point", "coordinates": [ 85.3395183, 27.7080379 ] } },
{ "type": "Feature", "properties": { "shop": null, "name": "Kariboat stop", "highway": null, "manhole": null, "repair": null, "amenity": null, "place": null, "religion": null, "historic": null, "atm": null, "addr_stree": null, "office": null, "name_ne": null, "name_en": null }, "geometry": { "type": "Point", "coordinates": [ 85.3547851, 27.7141933 ] } },
{ "type": "Feature", "properties": { "shop": null, "name": "Mahalaxmi Finance", "highway": null, "manhole": null, "repair": null, "amenity": "bank", "place": null, "religion": null, "historic": null, "atm": "no", "addr_stree": null, "office": null, "name_ne": null, "name_en": null }, "geometry": { "type": "Point", "coordinates": [ 85.3384195, 27.70827 ] } },
{ "type": "Feature", "properties": { "shop": null, "name": "Nepali Maharisi Foundation for Bhaidhik Culture", "highway": null, "manhole": null, "repair": null, "amenity": "school", "place": null, "religion": null, "historic": null, "atm": null, "addr_stree": null, "office": null, "name_ne": null, "name_en": null }, "geometry": { "type": "Point", "coordinates": [ 85.3398568, 27.7112838 ] } },
{ "type": "Feature", "properties": { "shop": null, "name": "Helping Hands Pharmacy", "highway": null, "manhole": null, "repair": null, "amenity": "pharmacy", "place": null, "religion": null, "historic": null, "atm": null, "addr_stree": null, "office": null, "name_ne": null, "name_en": null }, "geometry": { "type": "Point", "coordinates": [ 85.3463666, 27.717272 ] } },
{ "type": "Feature", "properties": { "shop": null, "name": "Cyber and Communication", "highway": null, "manhole": null, "repair": null, "amenity": null, "place": null, "religion": null, "historic": null, "atm": null, "addr_stree": null, "office": null, "name_ne": null, "name_en": null }, "geometry": { "type": "Point", "coordinates": [ 85.3452487, 27.7143261 ] } },
{ "type": "Feature", "properties": { "shop": null, "name": "Panna Hiti", "highway": null, "manhole": null, "repair": null, "amenity": null, "place": "neighbourhood", "religion": null, "historic": null, "atm": null, "addr_stree": null, "office": null, "name_ne": null, "name_en": null }, "geometry": { "type": "Point", "coordinates": [ 85.3401373, 27.7137465 ] } },
{ "type": "Feature", "properties": { "shop": "butcher", "name": "Meat SHop", "highway": null, "manhole": null, "repair": null, "amenity": null, "place": null, "religion": null, "historic": null, "atm": null, "addr_stree": null, "office": null, "name_ne": null, "name_en": null }, "geometry": { "type": "Point", "coordinates": [ 85.3381319, 27.7081431 ] } },
{ "type": "Feature", "properties": { "shop": null, "name": "Pipalbot Budhang Marg", "highway": null, "manhole": null, "repair": null, "amenity": null, "place": null, "religion": null, "historic": null, "atm": null, "addr_stree": null, "office": null, "name_ne": null, "name_en": null }, "geometry": { "type": "Point", "coordinates": [ 85.3457195, 27.7147294 ] } },
{ "type": "Feature", "properties": { "shop": null, "name": "Medi Plus Pharmacy", "highway": null, "manhole": null, "repair": null, "amenity": "pharmacy", "place": null, "religion": null, "historic": null, "atm": null, "addr_stree": null, "office": null, "name_ne": null, "name_en": null }, "geometry": { "type": "Point", "coordinates": [ 85.3465042, 27.7186901 ] } },
{ "type": "Feature", "properties": { "shop": null, "name": "Chabahil चाबाहील", "highway": null, "manhole": null, "repair": null, "amenity": null, "place": "suburb", "religion": null, "historic": null, "atm": null, "addr_stree": null, "office": null, "name_ne": "चाबाहील", "name_en": "Chabahil" }, "geometry": { "type": "Point", "coordinates": [ 85.3467302, 27.717083 ] } },
{ "type": "Feature", "properties": { "shop": null, "name": "Seto Bangla Boarding School", "highway": null, "manhole": null, "repair": null, "amenity": "school", "place": null, "religion": null, "historic": null, "atm": null, "addr_stree": null, "office": null, "name_ne": null, "name_en": null }, "geometry": { "type": "Point", "coordinates": [ 85.3379743, 27.7117352 ] } },
{ "type": "Feature", "properties": { "shop": null, "name": "Brilliant Multiple Campus", "highway": null, "manhole": null, "repair": null, "amenity": "college", "place": null, "religion": null, "historic": null, "atm": null, "addr_stree": null, "office": null, "name_ne": null, "name_en": null }, "geometry": { "type": "Point", "coordinates": [ 85.3410942, 27.71399 ] } },
{ "type": "Feature", "properties": { "shop": null, "name": "tube well", "highway": null, "manhole": null, "repair": null, "amenity": null, "place": null, "religion": null, "historic": null, "atm": null, "addr_stree": null, "office": null, "name_ne": null, "name_en": null }, "geometry": { "type": "Point", "coordinates": [ 85.3392863, 27.7095071 ] } },
{ "type": "Feature", "properties": { "shop": "beverages", "name": "Prem Cold Store", "highway": null, "manhole": null, "repair": null, "amenity": null, "place": null, "religion": null, "historic": null, "atm": null, "addr_stree": null, "office": null, "name_ne": null, "name_en": null }, "geometry": { "type": "Point", "coordinates": [ 85.3398418, 27.7095784 ] } },
{ "type": "Feature", "properties": { "shop": null, "name": "Valley Top Momo", "highway": null, "manhole": null, "repair": null, "amenity": "restaurant", "place": null, "religion": null, "historic": null, "atm": null, "addr_stree": null, "office": null, "name_ne": null, "name_en": null }, "geometry": { "type": "Point", "coordinates": [ 85.3447881, 27.7137499 ] } },
{ "type": "Feature", "properties": { "shop": null, "name": "manju and anuska khaja ghar", "highway": null, "manhole": null, "repair": null, "amenity": "fast_food", "place": null, "religion": null, "historic": null, "atm": null, "addr_stree": null, "office": null, "name_ne": null, "name_en": null }, "geometry": { "type": "Point", "coordinates": [ 85.3373088, 27.7096384 ] } },
{ "type": "Feature", "properties": { "shop": null, "name": "Space Pharmacy", "highway": null, "manhole": null, "repair": null, "amenity": "pharmacy", "place": null, "religion": null, "historic": null, "atm": null, "addr_stree": null, "office": null, "name_ne": null, "name_en": null }, "geometry": { "type": "Point", "coordinates": [ 85.3465477, 27.7180355 ] } },
{ "type": "Feature", "properties": { "shop": null, "name": "Razam Medical Center", "highway": null, "manhole": null, "repair": null, "amenity": "clinic", "place": null, "religion": null, "historic": null, "atm": null, "addr_stree": null, "office": null, "name_ne": null, "name_en": null }, "geometry": { "type": "Point", "coordinates": [ 85.3471848, 27.7180973 ] } },
{ "type": "Feature", "properties": { "shop": null, "name": "Bhairab Mandir", "highway": null, "manhole": null, "repair": null, "amenity": null, "place": null, "religion": null, "historic": "wayside_shrine", "atm": null, "addr_stree": null, "office": null, "name_ne": null, "name_en": null }, "geometry": { "type": "Point", "coordinates": [ 85.339716, 27.7094976 ] } },
{ "type": "Feature", "properties": { "shop": "furniture", "name": "Baram and Basel Furniture Showroom", "highway": null, "manhole": null, "repair": null, "amenity": null, "place": null, "religion": null, "historic": null, "atm": null, "addr_stree": null, "office": null, "name_ne": null, "name_en": null }, "geometry": { "type": "Point", "coordinates": [ 85.3395475, 27.708067 ] } },
{ "type": "Feature", "properties": { "shop": null, "name": "Newaaz cafe", "highway": null, "manhole": null, "repair": null, "amenity": "cafe", "place": null, "religion": null, "historic": null, "atm": null, "addr_stree": null, "office": null, "name_ne": null, "name_en": null }, "geometry": { "type": "Point", "coordinates": [ 85.3399227, 27.708086 ] } },
{ "type": "Feature", "properties": { "shop": "jewelry", "name": "Real Classic Jewelers", "highway": null, "manhole": null, "repair": null, "amenity": null, "place": null, "religion": null, "historic": null, "atm": null, "addr_stree": null, "office": null, "name_ne": null, "name_en": null }, "geometry": { "type": "Point", "coordinates": [ 85.3465495, 27.7165693 ] } },
{ "type": "Feature", "properties": { "shop": null, "name": "new purbanchal hotel and guest house", "highway": null, "manhole": null, "repair": null, "amenity": null, "place": null, "religion": null, "historic": null, "atm": null, "addr_stree": null, "office": null, "name_ne": null, "name_en": null }, "geometry": { "type": "Point", "coordinates": [ 85.3399997, 27.708108 ] } },
{ "type": "Feature", "properties": { "shop": null, "name": "Vijay Art Concern", "highway": null, "manhole": null, "repair": null, "amenity": "arts_centre", "place": null, "religion": null, "historic": null, "atm": null, "addr_stree": null, "office": null, "name_ne": null, "name_en": null }, "geometry": { "type": "Point", "coordinates": [ 85.3381794, 27.7117714 ] } },
{ "type": "Feature", "properties": { "shop": null, "name": "EMO Bachat Tatha Sahakari Sansthan", "highway": null, "manhole": null, "repair": null, "amenity": null, "place": null, "religion": null, "historic": null, "atm": null, "addr_stree": null, "office": "cooperative", "name_ne": null, "name_en": null }, "geometry": { "type": "Point", "coordinates": [ 85.3385093, 27.7104072 ] } },
{ "type": "Feature", "properties": { "shop": null, "name": "Vinayak Tole", "highway": null, "manhole": null, "repair": null, "amenity": null, "place": "neighbourhood", "religion": null, "historic": null, "atm": null, "addr_stree": null, "office": null, "name_ne": null, "name_en": null }, "geometry": { "type": "Point", "coordinates": [ 85.3427565, 27.7175579 ] } },
{ "type": "Feature", "properties": { "shop": null, "name": "Street Lamp", "highway": "street_lamp", "manhole": null, "repair": null, "amenity": null, "place": null, "religion": null, "historic": null, "atm": null, "addr_stree": null, "office": null, "name_ne": null, "name_en": null }, "geometry": { "type": "Point", "coordinates": [ 85.3479671, 27.7149373 ] } },
{ "type": "Feature", "properties": { "shop": null, "name": "Pannahity Galli", "highway": "residential", "manhole": null, "tourism": null, "repair": null, "source": null, "amenity": null, "denominati": null, "place": null, "religion": null, "historic": null, "smoking": null, "atm": null, "survellian": null, "craft": null, "addr_stree": null, "public_tra": null, "designatio": null, "opd_patien": null, "opening_ho": null, "office": null, "parking": null, "surface": null, "access": null, "covered": null, "supervised": null, "denotation": null, "type": null, "natural": null, "capacity_b": null, "leisure": null, "operator": null, "name_ne": null, "sale": null, "cuisine": null, "key": null, "dispensing": null, "internet_a": null, "internet_1": null, "sport": null, "cyber": null, "name_en": null, "alt_name": null, "addr_city": null, "man_made": null, "addr_house": null, "oneway": null, "lanes": null, "website": null, "addr_hou_1": null, "landuse": null, "foot": null, "cycleway": null, "bicycle": null, "motor_vehi": null, "galli": null, "addr_postc": null, "phone": null }, "geometry": { "type": "Point", "coordinates": [ 85.341377326480909, 27.713952795288428 ] } },
{ "type": "Feature", "properties": { "shop": null, "name": "Gopi Krishna Hall", "highway": null, "manhole": null, "tourism": null, "repair": null, "source": null, "amenity": "cinema", "denominati": null, "place": null, "religion": null, "historic": null, "smoking": null, "atm": null, "survellian": null, "craft": null, "addr_stree": null, "public_tra": null, "designatio": null, "opd_patien": null, "opening_ho": null, "office": null, "parking": null, "surface": null, "access": null, "covered": null, "supervised": null, "denotation": null, "type": null, "natural": null, "capacity_b": null, "leisure": null, "operator": null, "name_ne": "गोपी क्रिष्ण हल", "sale": null, "cuisine": null, "key": null, "dispensing": null, "internet_a": null, "internet_1": null, "sport": null, "cyber": null, "name_en": null, "alt_name": null, "addr_city": null, "man_made": null, "addr_house": null, "oneway": null, "lanes": null, "website": null, "addr_hou_1": null, "landuse": null, "foot": null, "cycleway": null, "bicycle": null, "motor_vehi": null, "galli": null, "addr_postc": null, "phone": null }, "geometry": { "type": "Point", "coordinates": [ 85.34636119177506, 27.722518355502434 ] } },
{ "type": "Feature", "properties": { "shop": null, "name": "Madan-Asrit Smriti PlayGround", "highway": null, "manhole": null, "tourism": null, "repair": null, "source": null, "amenity": null, "denominati": null, "place": null, "religion": null, "historic": null, "smoking": null, "atm": null, "survellian": null, "craft": null, "addr_stree": null, "public_tra": null, "designatio": null, "opd_patien": null, "opening_ho": null, "office": null, "parking": null, "surface": null, "access": null, "covered": null, "supervised": null, "denotation": null, "type": null, "natural": null, "capacity_b": null, "leisure": "playground", "operator": null, "name_ne": null, "sale": null, "cuisine": null, "key": null, "dispensing": null, "internet_a": null, "internet_1": null, "sport": null, "cyber": null, "name_en": null, "alt_name": null, "addr_city": null, "man_made": null, "addr_house": null, "oneway": null, "lanes": null, "website": null, "addr_hou_1": null, "landuse": null, "foot": null, "cycleway": null, "bicycle": null, "motor_vehi": null, "galli": null, "addr_postc": null, "phone": null }, "geometry": { "type": "Point", "coordinates": [ 85.351369750962391, 27.715538365296059 ] } },
{ "type": "Feature", "properties": { "shop": "car_parts", "name": "hero service workshop", "highway": null, "manhole": null, "tourism": null, "repair": null, "source": null, "amenity": null, "denominati": null, "place": null, "religion": null, "historic": null, "smoking": null, "atm": null, "survellian": null, "craft": null, "addr_stree": null, "public_tra": null, "designatio": null, "opd_patien": null, "opening_ho": null, "office": null, "parking": null, "surface": null, "access": null, "covered": null, "supervised": null, "denotation": null, "type": null, "natural": null, "capacity_b": null, "leisure": null, "operator": null, "name_ne": null, "sale": null, "cuisine": null, "key": null, "dispensing": null, "internet_a": null, "internet_1": null, "sport": null, "cyber": null, "name_en": null, "alt_name": null, "addr_city": null, "man_made": null, "addr_house": null, "oneway": null, "lanes": null, "website": null, "addr_hou_1": null, "landuse": null, "foot": null, "cycleway": null, "bicycle": null, "motor_vehi": null, "galli": null, "addr_postc": null, "phone": null }, "geometry": { "type": "Point", "coordinates": [ 85.348107845536873, 27.719647809728116 ] } },
{ "type": "Feature", "properties": { "shop": "furniture", "name": "Furniture Factory", "highway": null, "manhole": null, "tourism": null, "repair": null, "source": null, "amenity": null, "denominati": null, "place": null, "religion": null, "historic": null, "smoking": null, "atm": null, "survellian": null, "craft": null, "addr_stree": null, "public_tra": null, "designatio": null, "opd_patien": null, "opening_ho": null, "office": null, "parking": null, "surface": null, "access": null, "covered": null, "supervised": null, "denotation": null, "type": null, "natural": null, "capacity_b": null, "leisure": null, "operator": null, "name_ne": null, "sale": null, "cuisine": null, "key": null, "dispensing": null, "internet_a": null, "internet_1": null, "sport": null, "cyber": null, "name_en": null, "alt_name": null, "addr_city": null, "man_made": null, "addr_house": null, "oneway": null, "lanes": null, "website": null, "addr_hou_1": null, "landuse": null, "foot": null, "cycleway": null, "bicycle": null, "motor_vehi": null, "galli": null, "addr_postc": null, "phone": null }, "geometry": { "type": "Point", "coordinates": [ 85.337420029564555, 27.708297308575975 ] } },
{ "type": "Feature", "properties": { "shop": null, "name": "Maila Dai Pasal", "highway": null, "manhole": null, "tourism": null, "repair": null, "source": null, "amenity": null, "denominati": null, "place": null, "religion": null, "historic": null, "smoking": null, "atm": null, "survellian": null, "craft": null, "addr_stree": null, "public_tra": null, "designatio": null, "opd_patien": null, "opening_ho": null, "office": null, "parking": null, "surface": null, "access": null, "covered": null, "supervised": null, "denotation": null, "type": null, "natural": null, "capacity_b": null, "leisure": null, "operator": null, "name_ne": null, "sale": null, "cuisine": null, "key": null, "dispensing": null, "internet_a": null, "internet_1": null, "sport": null, "cyber": null, "name_en": null, "alt_name": null, "addr_city": null, "man_made": null, "addr_house": null, "oneway": null, "lanes": null, "website": null, "addr_hou_1": null, "landuse": null, "foot": null, "cycleway": null, "bicycle": null, "motor_vehi": null, "galli": null, "addr_postc": null, "phone": null }, "geometry": { "type": "Point", "coordinates": [ 85.341911175617867, 27.716482722914485 ] } },
{ "type": "Feature", "properties": { "shop": "tailor", "name": "Nice Tailor", "highway": null, "manhole": null, "tourism": null, "repair": null, "source": null, "amenity": null, "denominati": null, "place": null, "religion": null, "historic": null, "smoking": null, "atm": null, "survellian": null, "craft": null, "addr_stree": null, "public_tra": null, "designatio": null, "opd_patien": null, "opening_ho": null, "office": null, "parking": null, "surface": null, "access": null, "covered": null, "supervised": null, "denotation": null, "type": null, "natural": null, "capacity_b": null, "leisure": null, "operator": null, "name_ne": null, "sale": null, "cuisine": null, "key": null, "dispensing": null, "internet_a": null, "internet_1": null, "sport": null, "cyber": null, "name_en": null, "alt_name": null, "addr_city": null, "man_made": null, "addr_house": null, "oneway": null, "lanes": null, "website": null, "addr_hou_1": null, "landuse": null, "foot": null, "cycleway": null, "bicycle": null, "motor_vehi": null, "galli": null, "addr_postc": null, "phone": null }, "geometry": { "type": "Point", "coordinates": [ 85.338176534923079, 27.708153090414601 ] } },
{ "type": "Feature", "properties": { "shop": null, "name": "Ragini pharmacy", "highway": null, "manhole": null, "tourism": null, "repair": null, "source": null, "amenity": "pharmacy", "denominati": null, "place": null, "religion": null, "historic": null, "smoking": null, "atm": null, "survellian": null, "craft": null, "addr_stree": null, "public_tra": null, "designatio": null, "opd_patien": null, "opening_ho": null, "office": null, "parking": null, "surface": null, "access": null, "covered": null, "supervised": null, "denotation": null, "type": null, "natural": null, "capacity_b": null, "leisure": null, "operator": null, "name_ne": null, "sale": null, "cuisine": null, "key": null, "dispensing": null, "internet_a": null, "internet_1": null, "sport": null, "cyber": null, "name_en": null, "alt_name": null, "addr_city": null, "man_made": null, "addr_house": null, "oneway": null, "lanes": null, "website": null, "addr_hou_1": null, "landuse": null, "foot": null, "cycleway": null, "bicycle": null, "motor_vehi": null, "galli": null, "addr_postc": null, "phone": null }, "geometry": { "type": "Point", "coordinates": [ 85.349330287043685, 27.713365972446251 ] } },
{ "type": "Feature", "properties": { "shop": null, "name": "Guru Marg", "highway": "service", "manhole": null, "tourism": null, "repair": null, "source": null, "amenity": null, "denominati": null, "place": null, "religion": null, "historic": null, "smoking": null, "atm": null, "survellian": null, "craft": null, "addr_stree": null, "public_tra": null, "designatio": null, "opd_patien": null, "opening_ho": null, "office": null, "parking": null, "surface": "ground", "access": null, "covered": null, "supervised": null, "denotation": null, "type": null, "natural": null, "capacity_b": null, "leisure": null, "operator": null, "name_ne": null, "sale": null, "cuisine": null, "key": null, "dispensing": null, "internet_a": null, "internet_1": null, "sport": null, "cyber": null, "name_en": null, "alt_name": null, "addr_city": null, "man_made": null, "addr_house": null, "oneway": null, "lanes": "2", "website": null, "addr_hou_1": null, "landuse": null, "foot": null, "cycleway": null, "bicycle": null, "motor_vehi": null, "galli": null, "addr_postc": null, "phone": null }, "geometry": { "type": "Point", "coordinates": [ 85.346794384194226, 27.712055733840423 ] } },
{ "type": "Feature", "properties": { "shop": null, "name": "Ward no.7 office", "highway": null, "manhole": null, "tourism": null, "repair": null, "source": null, "amenity": "public_building", "denominati": null, "place": null, "religion": null, "historic": null, "smoking": null, "atm": null, "survellian": null, "craft": null, "addr_stree": null, "public_tra": null, "designatio": "KMC, Ward office", "opd_patien": null, "opening_ho": null, "office": null, "parking": null, "surface": null, "access": null, "covered": null, "supervised": null, "denotation": null, "type": null, "natural": null, "capacity_b": null, "leisure": null, "operator": null, "name_ne": null, "sale": null, "cuisine": null, "key": null, "dispensing": null, "internet_a": null, "internet_1": null, "sport": null, "cyber": null, "name_en": null, "alt_name": null, "addr_city": null, "man_made": null, "addr_house": null, "oneway": null, "lanes": null, "website": null, "addr_hou_1": null, "landuse": null, "foot": null, "cycleway": null, "bicycle": null, "motor_vehi": null, "galli": null, "addr_postc": null, "phone": null }, "geometry": { "type": "Point", "coordinates": [ 85.345377188568378, 27.713557100606504 ] } },
{ "type": "Feature", "properties": { "shop": null, "name": "Aarya Cottage", "highway": null, "manhole": null, "tourism": null, "repair": null, "source": null, "amenity": null, "denominati": null, "place": null, "religion": null, "historic": null, "smoking": null, "atm": null, "survellian": null, "craft": null, "addr_stree": null, "public_tra": null, "designatio": null, "opd_patien": null, "opening_ho": null, "office": null, "parking": null, "surface": null, "access": null, "covered": null, "supervised": null, "denotation": null, "type": null, "natural": null, "capacity_b": null, "leisure": null, "operator": null, "name_ne": null, "sale": null, "cuisine": null, "key": null, "dispensing": null, "internet_a": null, "internet_1": null, "sport": null, "cyber": null, "name_en": null, "alt_name": null, "addr_city": null, "man_made": null, "addr_house": null, "oneway": null, "lanes": null, "website": null, "addr_hou_1": null, "landuse": null, "foot": null, "cycleway": null, "bicycle": null, "motor_vehi": null, "galli": null, "addr_postc": null, "phone": null }, "geometry": { "type": "Point", "coordinates": [ 85.346055072557604, 27.713129713625069 ] } },
{ "type": "Feature", "properties": { "shop": null, "name": "Webworld Nepal Pvt. Ltd", "highway": null, "manhole": null, "tourism": null, "repair": null, "source": null, "amenity": null, "denominati": null, "place": null, "religion": null, "historic": null, "smoking": null, "atm": null, "survellian": null, "craft": null, "addr_stree": null, "public_tra": null, "designatio": null, "opd_patien": null, "opening_ho": null, "office": null, "parking": null, "surface": null, "access": null, "covered": null, "supervised": null, "denotation": null, "type": null, "natural": null, "capacity_b": null, "leisure": null, "operator": null, "name_ne": null, "sale": null, "cuisine": null, "key": null, "dispensing": null, "internet_a": null, "internet_1": null, "sport": null, "cyber": null, "name_en": null, "alt_name": null, "addr_city": null, "man_made": null, "addr_house": null, "oneway": null, "lanes": null, "website": "http:\/\/www.webworldnepal.com\/", "addr_hou_1": null, "landuse": null, "foot": null, "cycleway": null, "bicycle": null, "motor_vehi": null, "galli": null, "addr_postc": null, "phone": null }, "geometry": { "type": "Point", "coordinates": [ 85.345023407881413, 27.71465303770027 ] } },
{ "type": "Feature", "properties": { "shop": null, "name": "kathmandu mahanagarpalika ward 7", "highway": null, "manhole": null, "tourism": null, "repair": null, "source": null, "amenity": null, "denominati": null, "place": null, "religion": null, "historic": null, "smoking": null, "atm": null, "survellian": null, "craft": null, "addr_stree": null, "public_tra": null, "designatio": null, "opd_patien": null, "opening_ho": null, "office": null, "parking": null, "surface": null, "access": null, "covered": null, "supervised": null, "denotation": null, "type": null, "natural": null, "capacity_b": null, "leisure": null, "operator": null, "name_ne": null, "sale": null, "cuisine": null, "key": null, "dispensing": null, "internet_a": null, "internet_1": null, "sport": null, "cyber": null, "name_en": null, "alt_name": null, "addr_city": null, "man_made": null, "addr_house": null, "oneway": null, "lanes": null, "website": null, "addr_hou_1": null, "landuse": null, "foot": null, "cycleway": null, "bicycle": null, "motor_vehi": null, "galli": null, "addr_postc": null, "phone": null }, "geometry": { "type": "Point", "coordinates": [ 85.348039693094606, 27.720079076404431 ] } },
{ "type": "Feature", "properties": { "shop": null, "name": "Ghale Residence", "highway": null, "manhole": null, "tourism": null, "repair": null, "source": null, "amenity": null, "denominati": null, "place": null, "religion": null, "historic": null, "smoking": null, "atm": null, "survellian": null, "craft": null, "addr_stree": null, "public_tra": null, "designatio": null, "opd_patien": null, "opening_ho": null, "office": null, "parking": null, "surface": null, "access": null, "covered": null, "supervised": null, "denotation": null, "type": null, "natural": null, "capacity_b": null, "leisure": null, "operator": null, "name_ne": null, "sale": null, "cuisine": null, "key": null, "dispensing": null, "internet_a": null, "internet_1": null, "sport": null, "cyber": null, "name_en": null, "alt_name": null, "addr_city": null, "man_made": null, "addr_house": null, "oneway": null, "lanes": null, "website": null, "addr_hou_1": null, "landuse": null, "foot": null, "cycleway": null, "bicycle": null, "motor_vehi": null, "galli": null, "addr_postc": null, "phone": null }, "geometry": { "type": "Point", "coordinates": [ 85.338259626252167, 27.710869407712273 ] } },
{ "type": "Feature", "properties": { "shop": null, "name": "Burger Bites", "highway": null, "manhole": null, "tourism": null, "repair": null, "source": null, "amenity": "cafe", "denominati": null, "place": null, "religion": null, "historic": null, "smoking": null, "atm": null, "survellian": null, "craft": null, "addr_stree": null, "public_tra": null, "designatio": null, "opd_patien": null, "opening_ho": null, "office": null, "parking": null, "surface": null, "access": null, "covered": null, "supervised": null, "denotation": null, "type": null, "natural": null, "capacity_b": null, "leisure": null, "operator": null, "name_ne": null, "sale": null, "cuisine": null, "key": null, "dispensing": null, "internet_a": null, "internet_1": null, "sport": null, "cyber": null, "name_en": null, "alt_name": null, "addr_city": null, "man_made": null, "addr_house": null, "oneway": null, "lanes": null, "website": null, "addr_hou_1": null, "landuse": null, "foot": null, "cycleway": null, "bicycle": null, "motor_vehi": null, "galli": null, "addr_postc": null, "phone": null }, "geometry": { "type": "Point", "coordinates": [ 85.338805849999986, 27.7081774 ] } },
{ "type": "Feature", "properties": { "shop": null, "name": "Ambe Apartments", "highway": null, "manhole": null, "tourism": null, "repair": null, "source": null, "amenity": null, "denominati": null, "place": null, "religion": null, "historic": null, "smoking": null, "atm": null, "survellian": null, "craft": null, "addr_stree": null, "public_tra": null, "designatio": "Apartments", "opd_patien": null, "opening_ho": null, "office": null, "parking": null, "surface": null, "access": null, "covered": null, "supervised": null, "denotation": null, "type": null, "natural": null, "capacity_b": null, "leisure": null, "operator": null, "name_ne": null, "sale": null, "cuisine": null, "key": null, "dispensing": null, "internet_a": null, "internet_1": null, "sport": null, "cyber": null, "name_en": null, "alt_name": null, "addr_city": null, "man_made": null, "addr_house": null, "oneway": null, "lanes": null, "website": null, "addr_hou_1": null, "landuse": null, "foot": null, "cycleway": null, "bicycle": null, "motor_vehi": null, "galli": null, "addr_postc": null, "phone": null }, "geometry": { "type": "Point", "coordinates": [ 85.345063462957157, 27.713686024249611 ] } },
{ "type": "Feature", "properties": { "shop": null, "name": "Secured Life International Group Pvt. Ltd.", "highway": null, "manhole": null, "tourism": null, "repair": null, "source": null, "amenity": null, "denominati": null, "place": null, "religion": null, "historic": null, "smoking": null, "atm": null, "survellian": null, "craft": null, "addr_stree": null, "public_tra": null, "designatio": null, "opd_patien": null, "opening_ho": null, "office": null, "parking": null, "surface": null, "access": null, "covered": null, "supervised": null, "denotation": null, "type": null, "natural": null, "capacity_b": null, "leisure": null, "operator": null, "name_ne": null, "sale": null, "cuisine": null, "key": null, "dispensing": null, "internet_a": null, "internet_1": null, "sport": null, "cyber": null, "name_en": null, "alt_name": null, "addr_city": null, "man_made": null, "addr_house": null, "oneway": null, "lanes": null, "website": "http:\/\/www.sliglink.com\/", "addr_hou_1": null, "landuse": null, "foot": null, "cycleway": null, "bicycle": null, "motor_vehi": null, "galli": null, "addr_postc": null, "phone": null }, "geometry": { "type": "Point", "coordinates": [ 85.346263041002231, 27.717068900120939 ] } },
{ "type": "Feature", "properties": { "shop": null, "name": "residential home", "highway": null, "manhole": null, "tourism": null, "repair": null, "source": null, "amenity": null, "denominati": null, "place": null, "religion": null, "historic": null, "smoking": null, "atm": null, "survellian": null, "craft": null, "addr_stree": null, "public_tra": null, "designatio": null, "opd_patien": null, "opening_ho": null, "office": null, "parking": null, "surface": null, "access": null, "covered": null, "supervised": null, "denotation": null, "type": null, "natural": null, "capacity_b": null, "leisure": null, "operator": null, "name_ne": null, "sale": null, "cuisine": null, "key": null, "dispensing": null, "internet_a": null, "internet_1": null, "sport": null, "cyber": null, "name_en": null, "alt_name": null, "addr_city": null, "man_made": null, "addr_house": null, "oneway": null, "lanes": null, "website": null, "addr_hou_1": null, "landuse": null, "foot": null, "cycleway": null, "bicycle": null, "motor_vehi": null, "galli": null, "addr_postc": null, "phone": null }, "geometry": { "type": "Point", "coordinates": [ 85.342643619311374, 27.716969294430996 ] } },
{ "type": "Feature", "properties": { "shop": null, "name": "Milan Galli -1", "highway": "residential", "manhole": null, "tourism": null, "repair": null, "source": null, "amenity": null, "denominati": null, "place": null, "religion": null, "historic": null, "smoking": null, "atm": null, "survellian": null, "craft": null, "addr_stree": null, "public_tra": null, "designatio": null, "opd_patien": null, "opening_ho": null, "office": null, "parking": null, "surface": "unpaved", "access": null, "covered": null, "supervised": null, "denotation": null, "type": null, "natural": null, "capacity_b": null, "leisure": null, "operator": null, "name_ne": null, "sale": null, "cuisine": null, "key": null, "dispensing": null, "internet_a": null, "internet_1": null, "sport": null, "cyber": null, "name_en": null, "alt_name": null, "addr_city": null, "man_made": null, "addr_house": null, "oneway": null, "lanes": null, "website": null, "addr_hou_1": null, "landuse": null, "foot": null, "cycleway": null, "bicycle": null, "motor_vehi": null, "galli": null, "addr_postc": null, "phone": null }, "geometry": { "type": "Point", "coordinates": [ 85.348117122779811, 27.71348810687768 ] } },
{ "type": "Feature", "properties": { "shop": null, "name": "Batajoo Residence", "highway": null, "manhole": null, "tourism": null, "repair": null, "source": null, "amenity": null, "denominati": null, "place": null, "religion": null, "historic": null, "smoking": null, "atm": null, "survellian": null, "craft": null, "addr_stree": "Hospital Marga 1", "public_tra": null, "designatio": null, "opd_patien": null, "opening_ho": null, "office": null, "parking": null, "surface": null, "access": null, "covered": null, "supervised": null, "denotation": null, "type": null, "natural": null, "capacity_b": null, "leisure": null, "operator": null, "name_ne": null, "sale": null, "cuisine": null, "key": null, "dispensing": null, "internet_a": null, "internet_1": null, "sport": null, "cyber": null, "name_en": null, "alt_name": null, "addr_city": null, "man_made": null, "addr_house": null, "oneway": null, "lanes": null, "website": null, "addr_hou_1": "104", "landuse": null, "foot": null, "cycleway": null, "bicycle": null, "motor_vehi": null, "galli": null, "addr_postc": null, "phone": null }, "geometry": { "type": "Point", "coordinates": [ 85.345737561030134, 27.717602125595967 ] } },
{ "type": "Feature", "properties": { "shop": null, "name": "Dharma Bhakta Marga", "highway": "secondary", "manhole": null, "tourism": null, "repair": null, "source": null, "amenity": null, "denominati": null, "place": null, "religion": null, "historic": null, "smoking": null, "atm": null, "survellian": null, "craft": null, "addr_stree": null, "public_tra": null, "designatio": null, "opd_patien": null, "opening_ho": null, "office": null, "parking": null, "surface": null, "access": null, "covered": null, "supervised": null, "denotation": null, "type": null, "natural": null, "capacity_b": null, "leisure": null, "operator": null, "name_ne": null, "sale": null, "cuisine": null, "key": null, "dispensing": null, "internet_a": null, "internet_1": null, "sport": null, "cyber": null, "name_en": null, "alt_name": null, "addr_city": null, "man_made": null, "addr_house": null, "oneway": null, "lanes": null, "website": null, "addr_hou_1": null, "landuse": null, "foot": null, "cycleway": null, "bicycle": null, "motor_vehi": null, "galli": null, "addr_postc": null, "phone": null }, "geometry": { "type": "Point", "coordinates": [ 85.339556698332231, 27.712109707688541 ] } },
{ "type": "Feature", "properties": { "shop": null, "name": "pasang khaja ghar", "highway": null, "manhole": null, "tourism": null, "repair": null, "source": null, "amenity": "cafe", "denominati": null, "place": null, "religion": null, "historic": null, "smoking": null, "atm": null, "survellian": null, "craft": null, "addr_stree": null, "public_tra": null, "designatio": null, "opd_patien": null, "opening_ho": null, "office": null, "parking": null, "surface": null, "access": null, "covered": null, "supervised": null, "denotation": null, "type": null, "natural": null, "capacity_b": null, "leisure": null, "operator": null, "name_ne": null, "sale": null, "cuisine": null, "key": null, "dispensing": null, "internet_a": null, "internet_1": null, "sport": null, "cyber": null, "name_en": null, "alt_name": null, "addr_city": null, "man_made": null, "addr_house": null, "oneway": null, "lanes": null, "website": null, "addr_hou_1": null, "landuse": null, "foot": null, "cycleway": null, "bicycle": null, "motor_vehi": null, "galli": null, "addr_postc": null, "phone": null }, "geometry": { "type": "Point", "coordinates": [ 85.338705553027808, 27.714954301018487 ] } },
{ "type": "Feature", "properties": { "shop": "stationery", "name": "Dahal books and stationery", "highway": null, "manhole": null, "tourism": null, "repair": null, "source": null, "amenity": null, "denominati": null, "place": null, "religion": null, "historic": null, "smoking": null, "atm": null, "survellian": null, "craft": null, "addr_stree": null, "public_tra": null, "designatio": null, "opd_patien": null, "opening_ho": null, "office": null, "parking": null, "surface": null, "access": null, "covered": null, "supervised": null, "denotation": null, "type": null, "natural": null, "capacity_b": null, "leisure": null, "operator": null, "name_ne": null, "sale": null, "cuisine": null, "key": null, "dispensing": null, "internet_a": null, "internet_1": null, "sport": null, "cyber": null, "name_en": null, "alt_name": null, "addr_city": null, "man_made": null, "addr_house": null, "oneway": null, "lanes": null, "website": null, "addr_hou_1": null, "landuse": null, "foot": null, "cycleway": null, "bicycle": null, "motor_vehi": null, "galli": null, "addr_postc": null, "phone": null }, "geometry": { "type": "Point", "coordinates": [ 85.338030826514057, 27.708139220461369 ] } },
{ "type": "Feature", "properties": { "shop": null, "name": "Shrestha Store", "highway": null, "manhole": null, "tourism": null, "repair": null, "source": null, "amenity": null, "denominati": null, "place": null, "religion": null, "historic": null, "smoking": null, "atm": null, "survellian": null, "craft": null, "addr_stree": null, "public_tra": null, "designatio": null, "opd_patien": null, "opening_ho": null, "office": null, "parking": null, "surface": null, "access": null, "covered": null, "supervised": null, "denotation": null, "type": null, "natural": null, "capacity_b": null, "leisure": null, "operator": null, "name_ne": null, "sale": null, "cuisine": null, "key": null, "dispensing": null, "internet_a": null, "internet_1": null, "sport": null, "cyber": null, "name_en": null, "alt_name": null, "addr_city": null, "man_made": null, "addr_house": null, "oneway": null, "lanes": null, "website": null, "addr_hou_1": null, "landuse": null, "foot": null, "cycleway": null, "bicycle": null, "motor_vehi": null, "galli": null, "addr_postc": null, "phone": null }, "geometry": { "type": "Point", "coordinates": [ 85.347621565139008, 27.722221918631352 ] } },
{ "type": "Feature", "properties": { "shop": "mall", "name": "KL Tower", "highway": null, "manhole": null, "tourism": null, "repair": null, "source": null, "amenity": null, "denominati": null, "place": null, "religion": null, "historic": null, "smoking": null, "atm": null, "survellian": null, "craft": null, "addr_stree": null, "public_tra": null, "designatio": null, "opd_patien": null, "opening_ho": null, "office": null, "parking": null, "surface": null, "access": null, "covered": null, "supervised": null, "denotation": null, "type": null, "natural": null, "capacity_b": null, "leisure": null, "operator": null, "name_ne": null, "sale": null, "cuisine": null, "key": null, "dispensing": null, "internet_a": null, "internet_1": null, "sport": null, "cyber": null, "name_en": null, "alt_name": null, "addr_city": null, "man_made": null, "addr_house": null, "oneway": null, "lanes": null, "website": null, "addr_hou_1": null, "landuse": null, "foot": null, "cycleway": null, "bicycle": null, "motor_vehi": null, "galli": null, "addr_postc": null, "phone": null }, "geometry": { "type": "Point", "coordinates": [ 85.350002024550875, 27.718351629659516 ] } },
{ "type": "Feature", "properties": { "shop": null, "name": "Garage", "highway": null, "manhole": null, "tourism": null, "repair": null, "source": null, "amenity": null, "denominati": null, "place": null, "religion": null, "historic": null, "smoking": null, "atm": null, "survellian": null, "craft": null, "addr_stree": null, "public_tra": null, "designatio": null, "opd_patien": null, "opening_ho": null, "office": null, "parking": null, "surface": null, "access": null, "covered": null, "supervised": null, "denotation": null, "type": null, "natural": null, "capacity_b": null, "leisure": null, "operator": "KIA Motors", "name_ne": null, "sale": null, "cuisine": null, "key": null, "dispensing": null, "internet_a": null, "internet_1": null, "sport": null, "cyber": null, "name_en": null, "alt_name": null, "addr_city": null, "man_made": null, "addr_house": null, "oneway": null, "lanes": null, "website": null, "addr_hou_1": null, "landuse": "garages", "foot": null, "cycleway": null, "bicycle": null, "motor_vehi": null, "galli": null, "addr_postc": null, "phone": null }, "geometry": { "type": "Point", "coordinates": [ 85.337269667640314, 27.708389997501442 ] } },
{ "type": "Feature", "properties": { "shop": null, "name": "Vegetable Market", "highway": null, "manhole": null, "tourism": null, "repair": null, "source": null, "amenity": "marketplace", "denominati": null, "place": null, "religion": null, "historic": null, "smoking": null, "atm": null, "survellian": null, "craft": null, "addr_stree": null, "public_tra": null, "designatio": null, "opd_patien": null, "opening_ho": null, "office": null, "parking": null, "surface": null, "access": null, "covered": null, "supervised": null, "denotation": null, "type": null, "natural": null, "capacity_b": null, "leisure": null, "operator": null, "name_ne": null, "sale": null, "cuisine": null, "key": null, "dispensing": null, "internet_a": null, "internet_1": null, "sport": null, "cyber": null, "name_en": null, "alt_name": null, "addr_city": null, "man_made": null, "addr_house": null, "oneway": null, "lanes": null, "website": null, "addr_hou_1": null, "landuse": "retail", "foot": null, "cycleway": null, "bicycle": null, "motor_vehi": null, "galli": null, "addr_postc": null, "phone": null }, "geometry": { "type": "Point", "coordinates": [ 85.345196502331149, 27.721286661142308 ] } },